City_ID,City,Country,Max Temp,Current Description,Lat,Lng,Hotel Name
1,Puerto Colombia,CO,80.69,few clouds,10.9878,-74.9547,Hotel El Emigrante
5,Catamarca,AR,80.78,few clouds,-28.4696,-65.7852,Amerian Catamarca Park Hotel
28,Lorengau,PG,83.95,overcast clouds,-2.0226,147.2712,Lorengau Harbourside Hotel
40,Butaritari,KI,82.24,broken clouds,3.0707,172.7902,Isles Sunset Lodge
42,Tautira,PF,86.02,light rain,-17.7333,-149.15,Pension Oaoa
71,Isangel,VU,86.11,overcast clouds,-19.55,169.2667,Tanna Lodge
83,Kahului,US,82.42,few clouds,20.8947,-156.47,Maui Seaside Hotel
93,Unguia,CO,82.42,broken clouds,8.0434,-77.0945,Residencias El Golfo
108,Vao,NC,80.62,broken clouds,-22.6667,167.4833,Hotel Kou-Bugny
109,Hithadhoo,MV,82.33,overcast clouds,-0.6,73.0833,Scoop Guest House
110,Broken Hill,AU,80.31,scattered clouds,-31.95,141.4333,Royal Exchange Hotel
135,Bima,ID,80.15,overcast clouds,-8.4667,118.7167,Lambitu Hotel
140,Yulara,AU,82.24,overcast clouds,-25.2406,130.9889,Desert Gardens Hotel - Ayers Rock Resort
144,Puerto Escondido,MX,81.05,few clouds,15.85,-97.0667,Aldea del Bazar Hotel and Spa
157,Ugoofaaru,MV,80.31,broken clouds,5.6667,73.0,Ungoofaaru Inn
174,Iquitos,PE,82.44,broken clouds,-3.7481,-73.2472,Cortez Malaga Techy Caroly
176,Morondava,MG,80.49,moderate rain,-20.2833,44.2833,La Case Bambou
182,Biak,ID,80.19,broken clouds,-0.9131,122.8766,Penginapan Kim
190,Port Moresby,PG,83.62,haze,-9.4431,147.1797,Lamana Hotel (Port Moresby)
208,San Juan,AR,86.02,clear sky,-31.5375,-68.5364,Hotel Provincial
209,Ewa Beach,US,82.35,broken clouds,21.3156,-158.0072,Base Lodging
210,Alice Springs,AU,83.75,scattered clouds,-23.7,133.8833,Desert Palms Alice Springs
231,Tevaitoa,PF,81.46,light rain,-16.7833,-151.5,Hôtel Raiatea Lodge
237,Port Keats,AU,85.59,light rain,-14.25,129.55,TDC Village (Hundred Man Camp)
241,Sola,VU,81.57,moderate rain,-13.8833,167.55,Leumerus Bungalows
247,Tual,ID,82.94,scattered clouds,-5.6667,132.75,Grand Vilia Hotel
251,Porto Novo,BJ,82.22,overcast clouds,6.4965,2.6036,Tour Eiffel Hotel Benin
273,Cabedelo,BR,81.27,scattered clouds,-6.9811,-34.8339,Hotel Pigalle
275,Santa Cruz,BO,82.45,clear sky,-17.8,-63.1667,Aviador Hotel Boutique
284,La Asuncion,VE,89.33,few clouds,11.0333,-63.8628,Colinas de Matasiete
315,Waingapu,ID,82.26,overcast clouds,-9.6567,120.2641,Pondok Wisata Elim
337,Teahupoo,PF,80.56,light rain,-17.8333,-149.2667,Vanira Lodge
367,Nicoya,CR,85.55,broken clouds,10.1483,-85.452,Las Cabinas Del Sueño
370,Nueva Gorgona,PA,85.21,broken clouds,8.55,-79.8667,Coronado Luxury Club & Suites
372,Tomatlan,MX,83.35,clear sky,19.9333,-105.25,El Salvial
382,Kavieng,PG,84.76,broken clouds,-2.5744,150.7967,Nusa Island Retreat
401,San Andres,CO,80.62,few clouds,12.5847,-81.7006,Hotel Arena Blanca
408,Mahina,PF,85.77,broken clouds,-17.5065,-149.489,Guest Beach Bungalow Tahiti
416,Karratha,AU,80.44,overcast clouds,-20.7377,116.8463,ibis Styles Karratha
418,Touros,BR,81.5,broken clouds,-5.1989,-35.4608,INN NEW HORIZON
424,Katiola,CI,83.03,overcast clouds,8.1333,-5.1,Auberge Residence Yebin
428,Auki,SB,83.23,overcast clouds,-8.7676,160.7034,Auki Motel
430,Cairns,AU,85.1,scattered clouds,-16.9167,145.7667,Mantra Trilogy Cairns
432,Port Augusta,AU,86.7,scattered clouds,-32.5,137.7667,Majestic Oasis Apartments
456,Pochutla,MX,82.22,scattered clouds,15.7432,-96.4661,Hotel Posada San Jose
457,Nhulunbuy,AU,81.21,overcast clouds,-12.2333,136.7667,East Arnhem Real Estate
459,Kiunga,PG,81.99,overcast clouds,-6.1219,141.2906,Airport Lodge Kiunga
479,Blackwater,AU,80.47,clear sky,-23.5833,148.8833,Blackwater Motor Inn
481,Bundaberg,AU,81.21,clear sky,-24.85,152.35,Takalvan Motel
492,Comodoro Rivadavia,AR,80.46,clear sky,-45.8667,-67.5,Austral Hotel
498,Makakilo City,US,80.92,broken clouds,21.3469,-158.0858,Marriott's Ko Olina Beach Club
500,Nabire,ID,83.61,overcast clouds,-3.3667,135.4833,Hotel Nusantara Nabire
501,Swan Hill,AU,80.67,clear sky,-35.3378,143.5544,Lazy River Motor Inn
513,Mildura,AU,84.07,scattered clouds,-34.2,142.15,Mercure Hotel Mildura
514,Kathu,TH,84.61,overcast clouds,7.9178,98.3332,Novotel Phuket Resort
515,Lethem,GY,83.86,overcast clouds,3.3803,-59.7968,Savannah Inn
517,Faanui,PF,81.63,overcast clouds,-16.4833,-151.75,Bora-Bora Pearl Beach Resort & Spa
529,Canala,NC,84.69,overcast clouds,-21.5333,165.95,Table d’hôte chez Betty
533,La Orilla,MX,80.53,clear sky,17.9833,-102.2333,Baymont by Wyndham Lazaro Cardenas
562,Kloulklubed,PW,82.9,scattered clouds,7.0419,134.2556,Storyboard Beach Resort
575,Cayenne,GF,81.09,clear sky,4.9333,-52.3333,Hôtel Le Dronmi
576,Lahaina,US,82.4,clear sky,20.8783,-156.6825,Lahaina Shores Beach Resort
582,Vanimo,PG,83.03,moderate rain,-2.6741,141.3028,Vahmoneh Lodge Vanimo
598,Howard Springs,AU,80.87,overcast clouds,-12.497,131.047,buffalo beach hostel
599,Samarai,PG,83.32,broken clouds,-10.6167,150.6667,Nuli Sapi
609,Alyangula,AU,84.07,overcast clouds,-13.8483,136.4192,Groote Eylandt Lodge
610,Kirakira,SB,84.09,light rain,-10.4544,161.9205,SanBiz Lodge
677,Kununurra,AU,80.58,overcast clouds,-15.7667,128.7333,Hotel Kununurra
685,Petatlan,MX,85.8,scattered clouds,17.5167,-101.2667,Hotel California Petatlán
